volcano name,last eruption year,country,latitude,longitude,elevation
Abu,-6850,Japan,34.5,131.6,641
Acamarachi,Unknown,Chile,-23.292,-67.618,6023
Acatenango,1972,Guatemala,14.501,-90.876,3976
Acigol-Nevsehir,-2080,Turkey,38.537,34.621,1683
Adams,950,United States,46.206,-121.49,3742
Adatarayama,1996,Japan,37.647,140.281,1728
Adwa,Unknown,Ethiopia,10.07,40.84,1733
Afdera,Unknown,Ethiopia,13.088,40.853,1250
Agrigan,1917,United States,18.77,145.67,965
Agua,Unknown,Guatemala,14.465,-90.743,3760
Agua de Pau,1564,Portugal,37.77,-25.47,947
Aguilera,-1250,Chile,-50.33,-73.75,2546
Agung,2019,Indonesia,-8.343,115.508,2997
Ahyi,2014,United States,20.42,145.03,-75
Aira,2020,Japan,31.593,130.657,1117
Akademia Nauk,1996,Russia,53.98,159.45,1180
Akagisan,Unknown,Japan,36.56,139.193,1828
Akan,2008,Japan,43.384,144.013,1499
Akita-Komagatake,1971,Japan,39.761,140.799,1637
Akita-Yakeyama,1997,Japan,39.964,140.757,1366
Akusekijima,Unknown,Japan,29.465,129.594,555
Akutan,1992,United States,54.134,-165.986,1303
Alaid,2018,Russia,50.861,155.565,2285
Alayta,1915,Ethiopia,12.888,40.573,1496
Alcedo,1993,Ecuador,-0.43,-91.12,1130
Ale Bagu,Unknown,Ethiopia,13.512,40.631,988
Alid,Unknown,Eritrea,14.88,39.92,904
Aliso,-2450,Ecuador,-0.53,-78,4267
Alligator Lake,Unknown,Canada,60.42,-135.42,2217
Almolonga,1818,Guatemala,14.797,-91.519,3173
Alney-Chashakondzha,1600,Russia,56.656,159.647,2570
Alu-Dalafilla,2008,Ethiopia,13.793,40.553,578
Alutu,-50,Ethiopia,7.77,38.78,2335
Amak,1796,United States,55.424,-163.149,488
Amasing,Unknown,Indonesia,-0.53,127.48,1030
Ambae,2018,Vanuatu,-15.389,167.835,1496
Ambalatungan Group,Unknown,Philippines,17.32,121.1,2329
Ambang,2005,Indonesia,0.75,124.42,1795
Ambitle,-350,Papua New Guinea,-4.08,153.65,450
Ambre-Bobaomby,Unknown,Madagascar,-12.6,49.15,1475
Ambrym,2018,Vanuatu,-16.25,168.12,1334
Amsterdam Island,Unknown,France,-37.83,77.52,881
Amukta,1997,United States,52.5,-171.252,1066
Anatahan,2008,United States,16.35,145.67,790
Anaun,Unknown,Russia,56.32,158.83,1828
Andahua-Orcopampa,1490,Peru,-15.42,-72.33,4713
Andrus,Unknown,Antarctica,-75.8,-132.33,2978
Aneityum,Unknown,Vanuatu,-20.2,169.78,852
Aniakchak,1931,United States,56.88,-158.17,1341
Antillanca Volcanic Complex,-230,Chile,-40.783,-72.15,1979
Antisana,1802,Ecuador,-0.481,-78.141,5753
Antofagasta Volcanic Field,Unknown,Argentina,-26.12,-67.4,3495
Antuco,1869,Chile,-37.406,-71.349,2979
Aogashima,1785,Japan,32.458,139.759,423
Apagado,-590,Chile,-41.88,-72.58,1210
Apaneca Range,Unknown,El Salvador,13.891,-89.786,2036
Apastepeque Field,Unknown,El Salvador,13.72,-88.77,700
Apo,Unknown,Philippines,6.989,125.269,2938
Apoyeque,-50,Nicaragua,12.242,-86.342,518
Aracar,Unknown,Argentina,-24.29,-67.783,6095
Aragats,Unknown,Armenia,40.53,44.2,4095
Ararat,1840,Turkey,39.7,44.3,5165
Arayat,Unknown,Philippines,15.2,120.742,1026
Ardoukoba,1978,Djibouti,11.58,42.47,298
Arenal,2010,Costa Rica,10.463,-84.703,1670
"Arhab, Harra of",500,Yemen,15.63,44.08,3100
Arjuno-Welirang,1952,Indonesia,-7.733,112.575,3339
Arxan-Chaihe,0,China,47.45,120.8,1677
Asacha,Unknown,Russia,52.355,157.827,1910
Asamayama,2019,Japan,36.406,138.523,2568
Ascension,1508,United Kingdom,-7.95,-14.37,858
Askja,1961,Iceland,65.033,-16.783,1080
Asosan,2020,Japan,32.884,131.104,1592
Assab Volcanic Field,Unknown,Eritrea,12.95,42.43,987
Asuncion,1906,United States,19.671,145.406,857
Ata,885,Japan,31.22,130.57,924
Atacazo,-320,Ecuador,-0.353,-78.617,4463
Atka,1812,United States,52.331,-174.139,1448
Atlin Volcanic Field,Unknown,Canada,59.68,-133.32,1880
"Atuel, Caldera del",Unknown,Argentina,-34.65,-70.05,5189
Auckland Volcanic Field,1350,New Zealand,-36.9,174.87,260
Augustine,2006,United States,59.363,-153.43,1252
Avachinsky,2001,Russia,53.256,158.836,2717
Axial Seamount,2015,Undersea Features,45.95,-130,-1410
Azas Plateau,Unknown,Russia,52.433,98.303,2765
"Azufre, Cerro del",Unknown,Chile,-21.787,-68.237,5846
"Azul, Cerro",2008,Ecuador,-0.92,-91.408,1640
"Azul, Cerro",1967,Chile,-35.653,-70.761,3788
Azumayama,1977,Japan,37.735,140.244,1949
Babuyan Claro,1924,Philippines,19.523,121.94,1080
Bachelor,-5800,United States,43.979,-121.688,2763
Bagana,2020,Papua New Guinea,-6.137,155.196,1855
Bakening,-550,Russia,53.905,158.07,2278
Baker,1880,United States,48.777,-121.813,3285
"Bal Haf, Harra of",Unknown,Yemen,14.067,48.3,604
Baluan,Unknown,Papua New Guinea,-2.57,147.28,254
Balut,Unknown,Philippines,5.4,125.375,862
Banahaw,Unknown,Philippines,14.07,121.48,2158
Banda Api,1988,Indonesia,-4.523,129.881,596
Bandaisan,1888,Japan,37.601,140.072,1816
Barcena,1953,Mexico,19.3,-110.82,332
Bardarbunga,2015,Iceland,64.633,-17.516,2000
Barkhatnaya Sopka,-3550,Russia,52.802,158.24,874
"Barrier, The",1921,Kenya,2.32,36.57,1032
Barva,-6050,Costa Rica,10.135,-84.1,2906
Bas Dong Nai,Unknown,Vietnam,10.8,107.2,392
Batur,2000,Indonesia,-8.242,115.375,1717
"Bayo Gorbea, Cerro",Unknown,Chile-Argentina,-25.414,-68.588,5413
Bayuda Volcanic Field,850,Sudan,18.33,32.75,670
Belknap,480,United States,44.285,-121.841,2095
Bely,Unknown,Russia,57.88,160.53,2080
Berlin,-8350,Antarctica,-76.05,-136,3478
Berutarubesan [Berutarube],Unknown,Japan - administered by Russia,44.462,146.932,1221
Bezymianny,2020,Russia,55.972,160.595,2882
Bibinoi,Unknown,Indonesia,-0.761,127.725,932
Biliran,1939,Philippines,11.523,124.535,1301
Billy Mitchell,1580,Papua New Guinea,-6.092,155.225,1544
"Birk, Harrat al",Unknown,Saudi Arabia,18.37,41.63,587
Bishoftu Volcanic Field,Unknown,Ethiopia,8.78,38.98,1850
Black Butte Crater Lava Field,-8400,United States,43.183,-114.352,1478
Black Rock Desert,1290,United States,38.97,-112.5,1800
"Blanca, Laguna",Unknown,Argentina,-39.02,-70.37,1700
"Blanco, Cerro",-2300,Argentina,-26.789,-67.765,4670
Bogoslof,2017,United States,53.93,-168.03,150
Bolshe-Bannaya,Unknown,Russia,52.9,157.78,1200
Bolshoi Payalpan,Unknown,Russia,55.88,157.78,1906
Bolshoi Semiachik,-4450,Russia,54.32,160.02,1720
Bolshoi-Kekuknaysky,-5310,Russia,56.483,157.917,1401
Bora-Bericcio,Unknown,Ethiopia,8.221,39.05,2267
Borawli,Unknown,Ethiopia,13.304,40.987,784
Boset-Bericha,Unknown,Ethiopia,8.558,39.475,2447
Bouvet,-50,Norway,-54.408,3.351,741
"Bravo, Cerro",1720,Colombia,5.091,-75.293,3985
Brennisteinsfjoll,1341,Iceland,63.933,-21.783,610
Bridge River Cones,Unknown,Canada,50.8,-123.4,2500
Bristol Island,2016,United Kingdom,-59.017,-26.533,1100
Buckle Island,1899,Antarctica,-66.78,163.25,1239
Buldir,Unknown,United States,52.35,175.911,656
Bulusan,2017,Philippines,12.769,124.056,1535
Bunyaruguru,Unknown,Uganda,-0.2,30.08,1554
Butajiri-Silti Field,Unknown,Ethiopia,8.05,38.35,2281
Buyan-Bratan,Unknown,Indonesia,-8.283,115.133,2244
Cabalían,1820,Philippines,10.285,125.218,912
Caburgua-Huelemolle,-5050,Chile,-39.25,-71.75,1652
Cagua,1860,Philippines,18.222,122.123,1133
Calabozos,Unknown,Chile,-35.558,-70.496,3508
Calatrava Volcanic Field,-3600,Spain,38.87,-4.02,1117
Calbuco,2015,Chile,-41.33,-72.618,1974
Callaqui,1980,Chile,-37.92,-71.45,3164
Cameroon,2000,Cameroon,4.203,9.17,4095
Camiguin,1953,Philippines,9.203,124.673,1552
Camiguin de Babuyanes,1857,Philippines,18.83,121.86,712
Campi Flegrei,1538,Italy,40.827,14.139,458
Campi Flegrei del Mar di Sicilia,1867,Italy,37.1,12.7,-8
Candlemas Island,1911,United Kingdom,-57.08,-26.67,550
Carran-Los Venados,1979,Chile,-40.35,-72.07,1114
Carrizozo,-3250,United States,33.78,-105.93,1731
Cayambe,1786,Ecuador,0.029,-77.986,5790
Cayley Volcanic Field,Unknown,Canada,50.12,-123.28,2375
Cayutue-La Vigueria,-190,Chile,-41.25,-72.27,506
Ceboruco,1875,Mexico,21.125,-104.508,2280
Central Island,Unknown,Kenya,3.496,36.04,518
Cereme,1951,Indonesia,-6.895,108.408,3039
Chacana,1773,Ecuador,-0.375,-78.25,4643
Chachadake [Tiatia],1981,Japan - administered by Russia,44.353,146.252,1822
"Chachani, Nevado",Unknown,Peru,-16.191,-71.53,6057
Chachimbiro,-3740,Ecuador,0.468,-78.287,4106
Chaine des Puys,-4040,France,45.775,2.97,1464
Changbaishan,1903,China-North Korea,41.98,128.08,2744
Cherpuk Group,-4550,Russia,55.55,157.47,1868
Chichinautzin,400,Mexico,19.08,-99.13,3930
"Chichon, El",1982,Mexico,17.36,-93.228,1150
Chiginagak,1998,United States,57.135,-156.99,2221
Chikurachki,2016,Russia,50.324,155.461,1781
Chiles-Cerro Negro,1936,Colombia-Ecuador,0.817,-77.938,4698
"Chillan, Nevados de",2020,Chile,-36.868,-71.378,3180
Chinameca,Unknown,El Salvador,13.478,-88.33,1300
Chingo,Unknown,Guatemala-El Salvador,14.12,-89.73,1775
Chiquimula Volcanic Field,Unknown,Guatemala,14.83,-89.55,1192
Chirippusan [Chirip],1860,Japan - administered by Russia,45.338,147.92,1587
Chirpoi,2016,Russia,46.532,150.871,742
Chokaisan,1974,Japan,39.099,140.049,2236
Ch'uga-ryong,Unknown,North Korea-South Korea,38.33,127.33,452
Chyulu Hills,1855,Kenya,-2.68,37.88,2188
Cinnamon Butte,Unknown,United States,43.241,-122.108,1956
Clear Lake,Unknown,United States,38.97,-122.77,1439
Cleft Segment,1986,Undersea Features,44.83,-130.3,-2140
Coatepeque Caldera,Unknown,El Salvador,13.87,-89.55,746
CoAxial Segment,1993,Undersea Features,46.52,-129.58,-2400
"Cochons, Ile aux",Unknown,France,-46.1,50.23,775
Cofre de Perote,1150,Mexico,19.492,-97.15,4282
Colima,2019,Mexico,19.514,-103.62,3850
Colli Albani,Unknown,Italy,41.73,12.7,949
Comondu-La Purisima,Unknown,Mexico,26,-111.92,780
Concepcion,2011,Nicaragua,11.538,-85.622,1700
Copahue,2019,Chile-Argentina,-37.856,-71.183,2953
Corbetti Caldera,Unknown,Ethiopia,7.193,38.39,2320
Cordon de Puntas Negras,Unknown,Chile,-23.743,-67.534,5852
Corvo,Unknown,Portugal,39.699,-31.111,718
Cosiguina,1859,Nicaragua,12.98,-87.57,872
Cotopaxi,2016,Ecuador,-0.677,-78.436,5911
Crater Basalt Volcanic Field,Unknown,Argentina,-42.018,-70.194,1344
Crater Lake,-2850,United States,42.93,-122.12,2487
Craters of the Moon,-130,United States,43.42,-113.5,2005
Cuernos de Negros,Unknown,Philippines,9.25,123.17,1862
Cuicocha,650,Ecuador,0.308,-78.364,3246
Cuilapa-Barbarena,Unknown,Guatemala,14.33,-90.4,1454
Cumbal,1926,Colombia,0.95,-77.87,4764
"Cumbres,  Las",-3920,Mexico,19.15,-97.27,3940
Dabbahu,2005,Ethiopia,12.595,40.48,1401
Dabbayra,Unknown,Ethiopia,12.38,40.07,1302
Dakataua,1895,Papua New Guinea,-5.094,150.094,408
Dama Ali,1631,Ethiopia,11.28,41.63,1068
Damavand,-5350,Iran,35.951,52.109,5670
Dariganga Volcanic Field,Unknown,Mongolia,45.754,114.279,1778
Darwin,1813,Ecuador,-0.18,-91.28,1330
"Daun, Bukit",Unknown,Indonesia,-3.38,102.37,2467
Davis Lake,-2790,United States,43.57,-121.82,2163
Dawson Strait Group,1350,Papua New Guinea,-9.62,150.88,500
Deception Island,1970,Antarctica,-63.001,-60.652,602
Dempo,2017,Indonesia,-4.016,103.121,3142
Descabezado Grande,1933,Chile,-35.58,-70.75,3953
Devils Garden,Unknown,United States,43.512,-120.861,1698
"Dhamar, Harras of",1937,Yemen,14.57,44.67,3500
"Diables, Morne aux",Unknown,Dominica,15.612,-61.43,861
"Diablotins, Morne",Unknown,Dominica,15.503,-61.397,1430
Diamond Craters,-5610,United States,43.1,-118.75,1435
Dieng Volcanic Complex,2018,Indonesia,-7.2,109.879,2565
Diky Greben,350,Russia,51.452,156.978,1040
Domuyo,Unknown,Argentina,-36.638,-70.432,4702
Dubbi,1861,Eritrea,13.579,41.809,1625
Dukono,2020,Indonesia,1.693,127.894,1229
Durango Volcanic Field,Unknown,Mexico,24.15,-104.45,2075
Dzenzursky,Unknown,Russia,53.637,158.922,2285
East Diamante,Unknown,United States,15.93,145.67,-127
Easter Island,Unknown,Chile,-27.15,-109.38,511
Ebeko,2020,Russia,50.686,156.014,1103
"Eburru, Ol Doinyo",Unknown,Kenya,-0.65,36.22,2856
Ecuador,1150,Ecuador,-0.02,-91.546,790
Edgecumbe,-2220,United States,57.05,-135.75,970
Edziza,950,Canada,57.72,-130.63,2786
Elbrus,50,Russia,43.351,42.442,5642
Elovsky,-7550,Russia,57.55,160.53,1381
Emmons Lake,Unknown,United States,55.341,-162.073,1436
Emuruangogolak,1910,Kenya,1.5,36.33,1285
Endeavour Segment,-3490,Canada,47.95,-129.1,-2050
Epi,2004,Vanuatu,-16.68,168.37,833
Erciyes Dagi,-6880,Turkey,38.531,35.447,3864
Erebus,2020,Antarctica,-77.53,167.17,3794
Erta Ale,2020,Ethiopia,13.6,40.67,613
Esan,1874,Japan,41.805,141.166,618
Esjufjoll,Unknown,Iceland,64.25,-16.583,1620
Esteli,Unknown,Nicaragua,13.17,-86.4,899
Etna,2020,Italy,37.748,14.999,3295
Etorofu-Atosanupuri [Atosanupuri],1932,Japan - administered by Russia,44.808,147.131,1206
Etorofu-Yakeyama [Grozny Group],2013,Japan - administered by Russia,45.012,147.871,1158
Eyjafjallajokull,2010,Iceland,63.633,-19.633,1651
Farallon de Pajaros,1967,United States,20.546,144.893,337
Fayal,1958,Portugal,38.6,-28.73,1043
Fentale,1820,Ethiopia,8.975,39.93,2007
Fisher,1830,United States,54.65,-164.43,1112
Flores,Unknown,Guatemala,14.308,-89.992,1600
Flores,-950,Portugal,39.462,-31.216,914
Fogo,2015,Cape Verde,14.95,-24.35,2829
Fort Portal,-2120,Uganda,0.7,30.25,1615
Fort Selkirk,Unknown,Canada,62.93,-137.38,1239
"Fournaise, Piton de la",2020,France,-21.244,55.708,2632
Fremrinamar,-1200,Iceland,65.416,-16.666,970
Frosty,Unknown,United States,55.067,-162.835,1728
Fuego,2020,Guatemala,14.473,-90.88,3763
Fuerteventura,Unknown,Spain,28.358,-14.02,529
Fujisan,1708,Japan,35.361,138.728,3776
Fukue,-400,Japan,32.657,128.849,315
Furnas,1630,Portugal,37.77,-25.32,805
Gabillema,Unknown,Ethiopia,11.08,41.27,1459
Gada Ale,Unknown,Ethiopia,13.975,40.408,287
Galapagos Rift,1996,Undersea Features,0.792,-86.15,-2430
Galeras,2014,Colombia,1.22,-77.37,4276
Gallego,Unknown,Solomon Islands,-9.35,159.73,1000
Galunggung,1984,Indonesia,-7.25,108.058,2168
Gamalama,2018,Indonesia,0.8,127.33,1715
Gamchen,-550,Russia,54.974,160.703,2539
Gamkonora,2007,Indonesia,1.38,127.53,1635
Garibaldi,-8060,Canada,49.85,-123,2678
Garibaldi Lake,Unknown,Canada,49.933,-123,2316
Garove,Unknown,Papua New Guinea,-4.687,149.511,368
Garua Harbour,Unknown,Papua New Guinea,-5.3,150.07,565
Gaua,2011,Vanuatu,-14.27,167.5,797
Gedamsa,Unknown,Ethiopia,8.357,39.188,1873
Gede-Pangrango,1957,Indonesia,-6.77,106.965,3008
Genovesa,Unknown,Ecuador,0.32,-89.958,64
Ghegham Volcanic Ridge,-1900,Armenia,40.283,45,3597
Glacier Peak,1700,United States,48.112,-121.113,3213
"Gloria, La",Unknown,Mexico,19.33,-97.25,3500
Golden Trout Creek,-5550,United States,36.358,-118.32,2886
Goodenough,Unknown,Papua New Guinea,-9.48,150.35,220
Gorely,2010,Russia,52.559,158.03,1799
Graciosa,-1950,Portugal,39.02,-27.97,402
Gran Canaria,40,Spain,28,-15.58,1950
Granada,Unknown,Nicaragua,11.92,-85.98,300
Grimsnes,-3500,Iceland,64.05,-20.883,200
Grimsvotn,2011,Iceland,64.416,-17.316,1719
Guagua Pichincha,2002,Ecuador,-0.171,-78.598,4784
Guayaques,Unknown,Chile-Bolivia,-22.895,-67.566,5598
Guazapa,Unknown,El Salvador,13.9,-89.12,1438
Gufa,Unknown,Eritrea-Djibouti,12.55,42.53,600
Guntur,1847,Indonesia,-7.143,107.84,2249
Hachijojima,1606,Japan,33.137,139.766,854
Hachimantai,-5350,Japan,39.958,140.854,1613
Hainan Volcanic Field,1933,China,19.905,110.229,196
Hakkodasan,1550,Japan,40.659,140.877,1585
Hakoneyama,2015,Japan,35.233,139.021,1438
Hakusan,1659,Japan,36.155,136.771,2702
Haleakala,1750,United States,20.708,-156.25,3055
Halla,1007,South Korea,33.361,126.53,1919
Hanish,Unknown,Yemen,13.72,42.73,422
Hargy,950,Papua New Guinea,-5.33,151.1,1148
Harrat Ash Shamah,1850,Syria-Jordan-Saudi Arabia,32.333,37.583,1100
Harunasan,550,Japan,36.477,138.851,1449
Hasan Dagi,Unknown,Turkey,38.13,34.17,3253
Haut Dong Nai,Unknown,Vietnam,11.6,108.2,1000
"Haylan, Jabal",-1200,Yemen,15.4,45.1,1550
Healy,1360,New Zealand,-35.004,178.973,-980
Heard,2020,Australia,-53.106,73.513,2745
Hekla,2000,Iceland,63.983,-19.666,1490
Helgrindur,Unknown,Iceland,64.866,-23.283,986
Hell's Half Acre,-3250,United States,43.5,-112.45,1631
Hengill,150,Iceland,64.083,-21.416,803
Hierro,2012,Spain,27.73,-18.03,1500
Hiuchigatake,1544,Japan,36.955,139.285,2356
Hodson,Unknown,United Kingdom,-56.712,-27.176,835
Hofsjokull,Unknown,Iceland,64.833,-18.766,1765
Hokkaido-Komagatake,2000,Japan,42.063,140.677,1131
Homa Mountain,Unknown,Kenya,-0.38,34.5,1751
Hood,1866,United States,45.374,-121.695,3426
Hoodoo Mountain,-7050,Canada,56.78,-131.28,1850
Hromundartindur,Unknown,Iceland,64.083,-21.333,550
Hualalai,1801,United States,19.692,-155.87,2523
Huambo,-700,Peru,-15.83,-72.13,4550
Huanquihue Group,1750,Argentina,-39.887,-71.58,2189
Huaynaputina,1600,Peru,-16.608,-70.85,4850
Hudson Mountains,-210,Antarctica,-74.33,-99.42,749
"Hudson, Cerro",2011,Chile,-45.9,-72.97,1905
Huequi,1920,Chile,-42.377,-72.578,1318
Hulubelu,Unknown,Indonesia,-5.334,104.59,849
Hululais,Unknown,Indonesia,-3.247,102.239,2122
"Humeros, Los",-4470,Mexico,19.68,-97.45,3150
Iamalele,Unknown,Papua New Guinea,-9.52,150.53,200
Ibu,2020,Indonesia,1.488,127.63,1325
Iettunup,Unknown,Russia,58.4,161.08,1340
Igwisi Hills,-10450,Tanzania,-4.889,31.933,1146
Ijen,1999,Indonesia,-8.058,114.242,2769
Iktunup,Unknown,Russia,58.08,160.77,2300
Iliamna,1876,United States,60.032,-153.09,3053
Iliboleng,1993,Indonesia,-8.342,123.258,1659
Ililabalekan,Unknown,Indonesia,-8.55,123.38,1018
Ilimuda,Unknown,Indonesia,-8.479,122.761,881
Iliwerung,2013,Indonesia,-8.53,123.57,1018
Illiniza,Unknown,Ecuador,-0.659,-78.714,5248
Ilopango,1880,El Salvador,13.672,-89.053,450
Imbabura,-5550,Ecuador,0.258,-78.183,4609
Imuruk Lake,300,United States,65.517,-163.45,610
Indian Heaven,-6250,United States,45.93,-121.82,1806
Infiernillo,-6890,Argentina,-35.123,-69.9,3007
Inielika,2001,Indonesia,-8.73,120.98,1559
Inierie,-8050,Indonesia,-8.875,120.95,2245
Ioto,2012,Japan,24.751,141.289,169
Io-Torishima,1968,Japan,27.881,128.223,212
Ipala,Unknown,Guatemala,14.55,-89.63,1650
Irazu,1994,Costa Rica,9.979,-83.852,3432
"Isabel, Isla",Unknown,Mexico,21.848,-105.886,95
Isarog,-3500,Philippines,13.658,123.38,1966
Ischia,1302,Italy,40.73,13.897,789
Iskut-Unuk River Cones,1800,Canada,56.58,-130.55,1880
Itasy Volcanic Field,-6050,Madagascar,-19.033,46.7,1800
"Ithnayn, Harrat",Unknown,Saudi Arabia,26.58,40.2,1625
Iwakisan,1863,Japan,40.656,140.303,1625
Iwatesan,1919,Japan,39.853,141.001,2038
Ixtepeque,Unknown,Guatemala,14.42,-89.68,1292
Iya,1969,Indonesia,-8.891,121.641,618
Iyang-Argapura,Unknown,Indonesia,-7.97,113.57,3088
Iztaccihuatl,Unknown,Mexico,19.179,-98.642,5230
Izu-Oshima,1990,Japan,34.724,139.394,758
Izu-Tobu,1989,Japan,34.9,139.098,1406
Izu-Torishima,2002,Japan,30.484,140.303,394
Jailolo,Unknown,Indonesia,1.08,127.439,993
James Ross Island,Unknown,Antarctica,-64.15,-57.75,1630
Jan Mayen,1985,Norway,71.082,-8.155,2197
Jatun Mundo Quri Warani,Unknown,Bolivia,-19.78,-66.48,5438
"Jayu Khota, Laguna",Unknown,Bolivia,-19.463,-67.432,3650
Jefferson,950,United States,44.674,-121.8,3199
Jingbo,-520,China,44.08,128.83,1000
Jom-Bolok,-5180,Russia,52.713,99.021,2047
Jordan Craters,-1250,United States,43.147,-117.46,1473
Kaba,2000,Indonesia,-3.522,102.615,1940
Kaikata Seamount,Unknown,Japan,26.667,140.929,-165
Kaikohe-Bay of Islands,400,New Zealand,-35.3,173.9,388
Kaitoku Seamount,1984,Japan,26.127,141.102,-95
Kanaga,2012,United States,51.923,-177.168,1307
Kanlaon,2017,Philippines,10.412,123.132,2435
Karang,Unknown,Indonesia,-6.268,106.05,1768
Karapinar Field,Unknown,Turkey,37.667,33.6,1302
Karisimbi,-8050,DR Congo-Rwanda,-1.506,29.45,4490
Karkar,2014,Papua New Guinea,-4.649,145.964,1839
Karthala,2007,Comoros,-11.75,43.38,2361
Karymsky,2019,Russia,54.049,159.443,1513
Katla,1918,Iceland,63.633,-19.083,1490
Katmai,1912,United States,58.28,-154.963,2047
Katwe-Kikorongo,Unknown,Uganda,-0.08,29.92,1067
Kazbek,-750,Georgia,42.7,44.5,5050
Kebeney,Unknown,Russia,57.1,159.93,1527
Kekurny,Unknown,Russia,56.4,158.85,1377
Kelimutu,1968,Indonesia,-8.77,121.82,1639
Kell,Unknown,Russia,51.65,157.35,900
Keluo Group,Unknown,China,49.37,125.92,670
Kelut,2014,Indonesia,-7.93,112.308,1731
Kendang,Unknown,Indonesia,-7.245,107.709,2594
Kerguelen Islands,Unknown,France,-49.58,69.5,1840
Kerinci,2020,Indonesia,-1.697,101.264,3800
Ketoi,1960,Russia,47.35,152.475,1172
Khanuy Gol,Unknown,Mongolia,48.67,102.75,1886
Kharimkotan,1933,Russia,49.12,154.508,1145
"Khaybar, Harrat",650,Saudi Arabia,25,39.92,2093
Khodutka,-300,Russia,52.062,157.711,2039
Kick 'em Jenny,2017,Grenada,12.3,-61.64,-185
Kikai,2020,Japan,30.793,130.305,704
Kikhpinych,1550,Russia,54.489,160.251,1506
Kilauea,2018,United States,19.421,-155.287,1222
Kirishimayama,2018,Japan,31.934,130.862,1700
"Kishb, Harrat",Unknown,Saudi Arabia,22.8,41.38,1475
Kita-Bayonnaise,Unknown,Japan,32.1,139.85,-360
Kita-Ioto,1945,Japan,25.424,141.284,792
Klabat,Unknown,Indonesia,1.454,125.031,1968
Klyuchevskoy,2020,Russia,56.056,160.642,4754
Kolokol Group,1973,Russia,46.042,150.083,1328
Kone,1820,Ethiopia,8.788,39.701,1380
Korath Range,Unknown,Ethiopia,5.1,35.88,912
Korosi,Unknown,Kenya,0.77,36.12,1446
Korovin,2007,United States,52.381,-174.166,1518
Koshelev,1690,Russia,51.356,156.753,1822
Kostakan,1350,Russia,53.83,158.05,1150
"Koussi, Emi",Unknown,Chad,19.8,18.53,3415
Kozushima,838,Japan,34.219,139.153,572
Krafla,1984,Iceland,65.715,-16.728,800
Krakatau,2020,Indonesia,-6.102,105.423,155
Krasheninnikov,1550,Russia,54.596,160.27,1816
Krummel-Garbuna-Welcker,2008,Papua New Guinea,-5.416,150.027,564
Krysuvik,1340,Iceland,63.883,-22.083,360
Ksudach,1907,Russia,51.844,157.572,1079
Kuchinoerabujima,2020,Japan,30.443,130.217,657
Kuchinoshima,1190,Japan,29.968,129.926,628
Kujusan,1996,Japan,33.086,131.249,1791
Kula,Unknown,Turkey,38.58,28.52,750
Kunlun Volcanic Group,1951,China,35.52,80.2,5808
Kurikomayama,1950,Japan,38.961,140.788,1627
Kurile Lake,-6440,Russia,51.45,157.12,81
Kusatsu-Shiranesan,2018,Japan,36.618,138.528,2165
Kussharo,1320,Japan,43.615,144.427,574
Kuttara,1820,Japan,42.491,141.16,549
Kutum Volcanic Field,Unknown,Sudan,14.57,25.85,1779
Kuwae,1974,Vanuatu,-16.829,168.536,-2
Kverkfjoll,1968,Iceland,64.653,-16.647,1930
Kyejo,1800,Tanzania,-9.229,33.792,2176
La Palma,1971,Spain,28.57,-17.83,2426
Laguna Caldera,Unknown,Philippines,14.42,121.27,743
"Lajas, Las",Unknown,Nicaragua,12.3,-85.73,926
Lamongan,1898,Indonesia,-7.981,113.341,1641
Langila,2018,Papua New Guinea,-5.525,148.42,1330
Langjokull,950,Iceland,64.85,-19.7,1100
Lanin,560,Chile-Argentina,-39.637,-71.502,3776
Lanzarote,1824,Spain,29.03,-13.63,670
Lascar,2017,Chile,-23.37,-67.73,5592
Lassen Volcanic Center,1917,United States,40.492,-121.508,3187
Lawu,1885,Indonesia,-7.625,111.192,3265
"Lengai, Ol Doinyo",2020,Tanzania,-2.764,35.914,2962
Leonard Range,120,Philippines,7.382,126.047,1080
Leroboleng,2003,Indonesia,-8.365,122.833,1095
Leutongey,Unknown,Russia,57.306,159.827,1318
Level Mountain,Unknown,Canada,58.42,-131.35,2190
Lewotobi,2003,Indonesia,-8.542,122.775,1703
Liamuiga,160,Saint Kitts and Nevis,17.37,-62.8,1156
Licancabur,Unknown,Chile-Bolivia,-22.83,-67.88,5916
Licto,Unknown,Ecuador,-1.78,-78.613,3336
Lihir,Unknown,Papua New Guinea,-3.125,152.642,700
Lipari,1230,Italy,38.49,14.933,590
Ljosufjoll,960,Iceland,64.9,-22.483,1063
Llaima,2009,Chile,-38.692,-71.729,3125
Lokon-Empung,2015,Indonesia,1.358,124.792,1580
Lolo,Unknown,Papua New Guinea,-5.466,150.509,796
Lolobau,1912,Papua New Guinea,-4.92,151.158,858
Loloru,-1050,Papua New Guinea,-6.52,155.62,1887
Long Island,1993,Papua New Guinea,-5.358,147.12,1280
Longgang Group,350,China,42.33,126.5,1000
Lonquimay,1990,Chile,-38.379,-71.586,2832
Lubukraya,Unknown,Indonesia,1.478,99.209,1862
"Lunayyir, Harrat",1000,Saudi Arabia,25.17,37.75,1370
Ly Son Group,Unknown,Vietnam,15.38,109.12,157
Macauley,-4360,New Zealand,-30.21,-178.475,238
Madeira,-4500,Portugal,32.73,-16.97,1862
Mahagnao,Unknown,Philippines,10.882,124.888,860
Mahawu,1977,Indonesia,1.352,124.865,1299
Maipo,1912,Chile-Argentina,-34.164,-69.832,5323
Makushin,1995,United States,53.891,-166.923,1800
Maly Semyachik,1952,Russia,54.135,159.674,1527
Mammoth Mountain,1260,United States,37.631,-119.032,3369
Managlase Plateau,Unknown,Papua New Guinea,-9.08,148.33,1342
Manam,2020,Papua New Guinea,-4.08,145.037,1807
Manda Hararo,2009,Ethiopia,12.17,40.82,600
Manda-Inakir,1928,Ethiopia-Djibouti,12.38,42.2,600
Mandalagan,Unknown,Philippines,10.65,123.25,1885
Manzaz Volcanic Field,Unknown,Algeria,23.92,5.83,1672
Marapi,2018,Indonesia,-0.38,100.474,2885
"Mariñaqui, Laguna",Unknown,Chile,-38.255,-71.167,2108
Marion Island,2004,South Africa,-46.9,37.75,1230
Mariveles,-2050,Philippines,14.527,120.482,1388
Markagunt Plateau,1050,United States,37.58,-112.67,2840
Maroa,180,New Zealand,-38.42,176.08,897
"Marra, Jebel",-2000,Sudan,12.95,24.27,3042
Marsabit,Unknown,Kenya,2.32,37.97,1707
Martin,1953,United States,58.172,-155.361,1863
Maruyama,1898,Japan,43.418,143.031,2013
Masaya,2020,Nicaragua,11.985,-86.165,594
Mascota Volcanic Field,Unknown,Mexico,20.62,-104.83,2560
Mashu,1080,Japan,43.572,144.561,857
Matthew Island,1956,France,-22.33,171.32,177
Matutum,1290,Philippines,6.37,125.07,2286
"Maule, Laguna del",-50,Chile,-36.058,-70.492,2162
Mauna Kea,-2460,United States,19.82,-155.47,4205
Mauna Loa,1984,United States,19.475,-155.608,4170
Mayor Island,-5060,New Zealand,-37.28,176.25,355
Meager,-410,Canada,50.63,-123.5,2680
Medicine Lake,1060,United States,41.611,-121.554,2412
Mega Basalt Field,Unknown,Ethiopia-Kenya,4.063,37.488,1111
Megata,-2050,Japan,39.95,139.73,291
Meidob Volcanic Field,-2950,Sudan,15.32,26.47,2000
Melbourne,1892,Antarctica,-74.35,164.7,2732
Merapi,2020,Indonesia,-7.54,110.446,2910
Merbabu,1797,Indonesia,-7.454,110.44,3118
Meru,1910,Tanzania,-3.25,36.75,4565
Methana,-258,Greece,37.615,23.336,760
Michinmahuida,1835,Chile,-42.799,-72.445,2452
Michoacan-Guanajuato,1952,Mexico,19.85,-101.75,3860
Midagahara,1839,Japan,36.571,137.59,2621
Mikurajima,-4100,Japan,33.874,139.602,851
Milbanke Sound Group,Unknown,Canada,52.5,-128.73,335
Milna,1914,Russia,46.815,151.786,1504
Milos,140,Greece,36.699,24.439,751
Minami-Hiyoshi,1975,Japan,23.5,141.935,-107
Miravalles,1946,Costa Rica,10.748,-85.153,2028
Miyakejima,2010,Japan,34.094,139.526,775
Mocho-Choshuenco,1937,Chile,-39.927,-72.027,2422
Moffett,-1600,United States,51.944,-176.747,1196
Mojanda,Unknown,Ecuador,0.13,-78.27,4263
Mombacho,Unknown,Nicaragua,11.826,-85.968,1344
Momotombo,2016,Nicaragua,12.423,-86.539,1270
Mono Lake Volcanic Field,1790,United States,38,-119.03,2121
Mono-Inyo Craters,1380,United States,37.804,-119.029,2796
Montagu Island,2007,United Kingdom,-58.445,-26.374,1370
Morning,Unknown,Antarctica,-78.5,163.53,2723
Motlav,Unknown,Vanuatu,-13.67,167.67,411
Moyorodake [Medvezhia],1999,Japan - administered by Russia,45.389,148.838,1124
Moyuta,Unknown,Guatemala,14.03,-90.1,1662
Muhavura,Unknown,Uganda-Rwanda,-1.383,29.678,4103
Mundua,Unknown,Papua New Guinea,-4.624,149.339,171
Muria,-160,Indonesia,-6.62,110.88,1625
Mutnovsky,2000,Russia,52.449,158.196,2288
Myojinsho,1970,Japan,31.888,139.918,11
Myokosan,-750,Japan,36.891,138.114,2454
Nabukelevu,1660,Fiji,-19.12,177.98,805
Nakanoshima,1914,Japan,29.859,129.857,979
Namarunu,-6550,Kenya,1.98,36.43,817
Nantaisan,-9540,Japan,36.765,139.491,2486
Naolinco Volcanic Field,-1200,Mexico,19.67,-96.75,2000
Naruko,837,Japan,38.729,140.734,470
Nasudake,1963,Japan,37.125,139.963,1915
Natib,Unknown,Philippines,14.72,120.4,1253
"Negra, Sierra",2018,Ecuador,-0.83,-91.17,1124
"Negro, Cerro",1999,Nicaragua,12.506,-86.702,728
Nejapa-Miraflores,1060,Nicaragua,12.12,-86.32,360
Nemrut Dagi,1650,Turkey,38.654,42.229,2948
Nevis Peak,Unknown,Saint Kitts and Nevis,17.15,-62.58,985
Newberry,690,United States,43.722,-121.229,2434
Newer Volcanics Province,-2900,Australia,-37.77,142.5,1011
Ngozi,1450,Tanzania,-8.989,33.554,2614
Niigata-Yakeyama,1998,Japan,36.921,138.036,2400
Niijima,886,Japan,34.397,139.27,432
Nikko-Shiranesan,1952,Japan,36.799,139.376,2578
Niseko,-4900,Japan,42.875,140.659,1308
Nishihitokappuyama [Bogatyr Ridge],Unknown,Japan - administered by Russia,44.833,147.342,1634
Nisyros,1888,Greece,36.586,27.16,698
Niuafo'ou,1985,Tonga,-15.6,-175.63,260
Norikuradake,-50,Japan,36.106,137.554,3026
North Vate,Unknown,Vanuatu,-17.47,168.353,594
Northern EPR at 9.8°N,2006,Undersea Features,9.83,-104.3,-2500
Numazawa,-3400,Japan,37.444,139.566,835
NW Eifuku,Unknown,United States,21.485,144.043,-1535
NW Rota-1,2010,United States,14.601,144.775,-517
Nyambeni Hills,Unknown,Kenya,0.23,37.87,750
Nyamuragira,2020,DR Congo,-1.408,29.2,3058
Nyiragongo,2020,DR Congo,-1.52,29.25,3470
Nylgimelkin,-3550,Russia,57.97,160.65,1764
O'a Caldera,Unknown,Ethiopia,7.47,38.58,2075
Ofu-Olosega,1866,United States,-14.175,-169.618,639
"Ojos del Salado, Nevados",750,Chile-Argentina,-27.109,-68.541,6879
Okataina,1981,New Zealand,-38.12,176.5,1111
Oki-Dogo,Unknown,Japan,36.176,133.334,151
Okmok,2008,United States,53.43,-168.13,1073
Oku Volcanic Field,Unknown,Cameroon,6.25,10.5,3011
Ol Kokwe,Unknown,Kenya,0.62,36.075,1130
Olca-Paruma,Unknown,Chile-Bolivia,-20.939,-68.413,5705
Olkaria,1770,Kenya,-0.904,36.292,2434
Olkoviy Volcanic Group,Unknown,Russia,52.02,157.53,681
Olot Volcanic Field,Unknown,Spain,42.17,2.53,893
Omanago Group,-3050,Japan,36.795,139.507,2341
Ontakesan,2014,Japan,35.893,137.48,3067
Opala,1776,Russia,52.543,157.339,2439
Oraefajokull,1728,Iceland,64.05,-16.633,2010
"Orizaba, Pico de",1846,Mexico,19.03,-97.27,5564
Orosi,Unknown,Costa Rica,10.98,-85.473,1659
Oshima-Oshima,1790,Japan,41.51,139.367,732
Osorezan,1787,Japan,41.279,141.12,878
Osorno,1869,Chile,-41.105,-72.496,2659
Ostanets,Unknown,Russia,52.146,157.322,719
Otdelniy,Unknown,Russia,52.221,157.435,814
Pacaya,2020,Guatemala,14.382,-90.601,2569
Pagan,2012,United States,18.13,145.8,570
Paka,-7550,Kenya,0.92,36.18,1697
Pali-Aike Volcanic Field,-5550,Chile-Argentina,-52.082,-69.698,282
Palomo,Unknown,Chile,-34.608,-70.295,4860
Paluweh,2013,Indonesia,-8.32,121.708,875
Pampa Luxsar,Unknown,Bolivia,-20.85,-68.2,5543
Panarea,Unknown,Italy,38.638,15.064,399
Pantelleria,1891,Italy,36.77,12.02,836
Papandayan,2002,Indonesia,-7.32,107.73,2665
Papayo,Unknown,Mexico,19.308,-98.7,3600
Parinacota,290,Chile-Bolivia,-18.166,-69.142,6336
Patuha,Unknown,Indonesia,-7.162,107.4,2422
Pavlof,2016,United States,55.417,-161.894,2493
Payun Matru,-5050,Argentina,-36.422,-69.241,3715
Pelee,1932,France,14.809,-61.165,1394
Penanggungan,Unknown,Indonesia,-7.616,112.62,1631
Penguin Island,1905,Antarctica,-62.1,-57.93,180
Perbakti-Gagak,1939,Indonesia,-6.75,106.7,1699
Peuet Sague,2000,Indonesia,4.903,96.289,2785
Pico,1720,Portugal,38.47,-28.4,2351
Picos Volcanic System,1652,Portugal,37.78,-25.67,350
"Pilas, Las",1954,Nicaragua,12.495,-86.688,1088
Pinacate,Unknown,Mexico,31.772,-113.498,1200
Pinatubo,1993,Philippines,15.13,120.35,1486
Planchon-Peteroa,2019,Chile,-35.223,-70.568,3977
"Plat Pays, Morne",1270,Dominica,15.255,-61.341,940
Platanar,Unknown,Costa Rica,10.3,-84.366,2267
"Pleiades, The",-1050,Antarctica,-72.67,165.5,3040
Poas,2019,Costa Rica,10.2,-84.233,2708
Pocdol Mountains,Unknown,Philippines,13.05,123.958,1102
Pogranychny,Unknown,Russia,56.85,159.8,1427
Popa,-442,Burma (Myanmar),20.92,95.25,1518
Popocatepetl,2020,Mexico,19.023,-98.622,5393
Porak,-778,Armenia-Azerbaijan,40.028,45.74,3029
"Possession, Ile de la",Unknown,France,-46.42,51.75,934
Prestahnukur,-3350,Iceland,64.583,-20.666,1385
Prince Edward Island,Unknown,South Africa,-46.63,37.95,672
Protector Seamounts,1962,United Kingdom,-55.912,-28.167,-55
Pular,Unknown,Chile,-24.188,-68.054,6233
Pululahua,290,Ecuador,0.038,-78.463,3356
Puntiagudo-Cordon Cenizos,1850,Chile,-40.969,-72.264,2493
Purace,1977,Colombia,2.32,-76.4,4650
Purico Complex,Unknown,Chile,-23,-67.75,5703
Puyehue-Cordon Caulle,2012,Chile,-40.59,-72.117,2236
Qualibou,1766,Saint Lucia,13.83,-61.05,777
Quetrupillan,255,Chile,-39.496,-71.722,2360
"Quill, The",250,Netherlands,17.478,-62.96,601
Quimsachata,-4450,Peru,-14.176,-71.351,3693
Rabaul,2014,Papua New Guinea,-4.271,152.203,688
"Rahat, Harrat",1256,Saudi Arabia,23.08,39.78,1744
Rainier,1450,United States,46.853,-121.76,4392
Ranakah,1991,Indonesia,-8.62,120.52,2350
Ranau,Unknown,Indonesia,-4.871,103.925,1854
Raoul Island,2006,New Zealand,-29.27,-177.92,516
Rasshua,1957,Russia,47.77,153.02,956
Raung,2015,Indonesia,-8.119,114.056,3260
Raususan [Mendeleev],1880,Japan - administered by Russia,43.979,145.733,882
Recheschnoi,Unknown,United States,53.157,-168.539,1984
Reclus,1908,Chile,-50.964,-73.585,1000
Red Hill,-9450,United States,34.25,-108.83,2300
Reporoa,1180,New Zealand,-38.42,176.33,592
Reventador,2020,Ecuador,-0.077,-77.656,3562
Reykjanes,1831,Iceland,63.85,-22.566,140
Rincon de la Vieja,2020,Costa Rica,10.83,-85.324,1916
Rinjani,2016,Indonesia,-8.42,116.47,3726
Rota,Unknown,Nicaragua,12.55,-86.75,832
Royal Society Range,Unknown,Antarctica,-78.25,163.33,3000
Ruapehu,2007,New Zealand,-39.28,175.57,2797
Rucharuyama [Golets-Tornyi Group],Unknown,Japan - administered by Russia,45.25,148.35,442
"Ruiz, Nevado del",2020,Colombia,4.892,-75.324,5279
Rumble III,2008,New Zealand,-35.745,178.478,-220
Rungwe,1250,Tanzania,-9.135,33.668,2953
Ruruidake [Smirnov],Unknown,Japan - administered by Russia,44.454,146.139,1486
Saba,1640,Netherlands,17.63,-63.23,887
Sabancaya,2020,Peru,-15.787,-71.857,5960
Sairecabur,Unknown,Chile-Bolivia,-22.72,-67.892,5971
Salak,1938,Indonesia,-6.72,106.73,2211
Salton Buttes,210,United States,33.197,-115.616,-40
Samsari Volcanic Center,Unknown,Georgia,41.542,43.7,3290
San Borja Volcanic Field,Unknown,Mexico,28.5,-113.75,1360
San Cristobal,2019,Nicaragua,12.702,-87.004,1745
San Cristobal,Unknown,Ecuador,-0.88,-89.5,759
San Diego,Unknown,El Salvador-Guatemala,14.27,-89.48,781
San Francisco Volcanic Field,1075,United States,35.347,-111.678,3850
San Jose,1960,Chile-Argentina,-33.789,-69.895,6070
"San Luis, Isla",Unknown,Mexico,29.97,-114.4,180
San Martin,1796,Mexico,18.57,-95.2,1650
San Pablo Volcanic Field,1350,Philippines,14.12,121.3,1090
San Pedro-Pellado,Unknown,Chile,-35.989,-70.849,3621
San Pedro-San Pablo,1960,Chile,-21.888,-68.391,6142
San Quintin Volcanic Field,Unknown,Mexico,30.468,-115.996,260
San Salvador,1917,El Salvador,13.734,-89.294,1893
San Vicente,Unknown,El Salvador,13.595,-88.837,2182
Sanbesan,650,Japan,35.141,132.622,1126
Sand Mountain Field,-950,United States,44.38,-121.93,1664
Sangay,2020,Ecuador,-2.005,-78.341,5286
Sangeang Api,2020,Indonesia,-8.2,119.07,1912
"Sano, Wai",Unknown,Indonesia,-8.724,119.986,1319
Santa Ana,2005,El Salvador,13.853,-89.63,2381
Santa Cruz,Unknown,Ecuador,-0.62,-90.33,864
Santa Isabel,-850,Colombia,4.818,-75.365,4944
Santa Maria,2020,Guatemala,14.757,-91.552,3745
Santiago,1906,Ecuador,-0.22,-90.77,920
"Santiago, Cerro",Unknown,Guatemala,14.33,-89.87,1192
Santorini,1950,Greece,36.404,25.396,367
Sarik-Gajah,Unknown,Indonesia,0.074,100.189,737
Sarychev Peak,2019,Russia,48.092,153.2,1496
Sashiusudake [Baransky],1951,Japan - administered by Russia,45.1,148.019,1125
Saunders,2020,United Kingdom,-57.8,-26.483,843
Savai'i,1911,Samoa,-13.612,-172.525,1858
Savo,1847,Solomon Islands,-9.13,159.82,485
"Sawad, Harra Es-",1253,Yemen,13.58,46.12,1737
Seal Nunataks Group,Unknown,Antarctica,-65.03,-60.05,368
Seguam,1993,United States,52.315,-172.51,1054
Sekincau Belirang,Unknown,Indonesia,-5.107,104.317,1717
Semeru,2020,Indonesia,-8.108,112.922,3657
Semisopochnoi,2020,United States,51.93,179.58,1221
Serdan-Oriental,Unknown,Mexico,19.27,-97.47,3485
Serua,1921,Indonesia,-6.312,130.017,608
Sete Cidades,1880,Portugal,37.87,-25.78,856
Seulawah Agam,1839,Indonesia,5.448,95.658,1810
Severny,-1550,Russia,58.28,160.87,1936
Shasta,1250,United States,41.409,-122.193,4317
Sheveluch,2020,Russia,56.653,161.36,3283
Shiga,Unknown,Japan,36.688,138.519,2041
Shikotsu,1979,Japan,42.688,141.38,1320
Shiretoko-Iozan,1936,Japan,44.133,145.161,1562
Shishaldin,2020,United States,54.756,-163.97,2857
Sibualbuali,Unknown,Indonesia,1.556,99.255,1819
Silali,-5050,Kenya,1.15,36.23,1528
Silay,Unknown,Philippines,10.77,123.23,1510
Silverthrone,Unknown,Canada,51.43,-126.3,3160
Simbo,1910,Solomon Islands,-8.292,156.52,335
Sinabung,2019,Indonesia,3.17,98.392,2460
Singkut,1881,Indonesia,3.248,98.501,2181
"Singuil, Cerro",Unknown,El Salvador,14.054,-89.631,926
Siple,Unknown,Antarctica,-73.43,-126.67,3110
Sirung,2015,Indonesia,-8.508,124.13,862
Slamet,2014,Indonesia,-7.242,109.208,3428
Snezhniy,Unknown,Russia,58.02,160.8,2169
Socorro,1994,Mexico,18.78,-110.95,1050
Soda Lakes,Unknown,United States,39.53,-118.87,1251
Sollipulli,1240,Chile,-38.97,-71.52,2282
Soputan,2020,Indonesia,1.112,124.737,1785
Sorikmarapi,1986,Indonesia,0.686,99.539,2145
Soufriere Guadeloupe,1977,France,16.044,-61.664,1467
Soufriere Hills,2013,United Kingdom,16.72,-62.18,915
Soufriere St. Vincent,1979,Saint Vincent and the Grenadines,13.33,-61.18,1220
Southern Thule,1975,United Kingdom,-59.442,-27.225,1075
Spectrum Range,Unknown,Canada,57.43,-130.68,2430
Spurr,1992,United States,61.299,-152.251,3374
St. Andrew Strait,1957,Papua New Guinea,-2.38,147.35,270
St. Catherine,Unknown,Grenada,12.15,-61.67,840
St. Helens,2008,United States,46.2,-122.18,2549
St. Michael,Unknown,United States,63.45,-162.12,715
St. Paul Island,-1280,United States,57.18,-170.3,203
Stromboli,2020,Italy,38.789,15.213,924
Suchitan,Unknown,Guatemala,14.4,-89.78,2042
Sulu Range,Unknown,Papua New Guinea,-5.5,150.942,610
Sumaco,1895,Ecuador,-0.538,-77.626,3990
Sumbing,1921,Indonesia,-2.414,101.728,2507
Sumbing,1730,Indonesia,-7.384,110.07,3371
Sumisujima,1916,Japan,31.44,140.051,136
Sundoro,1971,Indonesia,-7.3,109.992,3136
Suretamatai,1966,Vanuatu,-13.8,167.47,921
Suswa,Unknown,Kenya,-1.151,36.357,2356
Suwanosejima,2020,Japan,29.638,129.714,796
Taal,2020,Philippines,14.002,120.993,311
Taapaca,-320,Chile,-18.1,-69.5,5860
Taburete,Unknown,El Salvador,13.435,-88.532,1172
Tacana,1986,Mexico-Guatemala,15.132,-92.109,4064
Tacora,Unknown,Chile-Peru,-17.72,-69.77,5980
Tafu-Maka,2008,Tonga,-15.37,-174.23,-1400
Tahual,Unknown,Guatemala,14.43,-89.9,1716
"Tair, Jebel at",2008,Yemen,15.55,41.83,244
Taisetsuzan,1739,Japan,43.664,142.854,2291
Takaharayama,-4570,Japan,36.9,139.777,1795
Takahe,-5550,Antarctica,-76.28,-112.08,3460
Talagabodas,Unknown,Indonesia,-7.208,108.07,2201
Talakmau,Unknown,Indonesia,0.079,99.98,2919
Talang,2007,Indonesia,-0.979,100.681,2575
Tambora,1967,Indonesia,-8.25,118,2850
Tanaga,1914,United States,51.885,-178.146,1806
Tandikat-Singgalang,1924,Indonesia,-0.39,100.331,2854
Tangkoko-Duasudara,1880,Indonesia,1.518,125.185,1334
Tangkuban Parahu,2019,Indonesia,-6.77,107.6,2084
Tao-Rusyr Caldera,1952,Russia,49.35,154.7,1325
Tarakan,Unknown,Indonesia,1.83,127.83,318
Taranaki,1800,New Zealand,-39.3,174.07,2518
Taryatu-Chulutu,-2980,Mongolia,48.133,99.95,2326
Tatun Volcanic Group,648,Taiwan,25.178,121.553,1120
Ta'u,Unknown,United States,-14.23,-169.454,931
Taupo,260,New Zealand,-38.82,176,760
Taveuni,1550,Fiji,-16.82,-179.97,1241
Tecapa,Unknown,El Salvador,13.494,-88.502,1593
Tecuamburro,-960,Guatemala,14.156,-90.407,1845
Telica,2018,Nicaragua,12.606,-86.84,1036
Telomoyo,Unknown,Indonesia,-7.362,110.4,1864
"Telong, Bur ni",1937,Indonesia,4.769,96.821,2617
Tenduruk Dagi,1855,Turkey,39.356,43.874,3514
Tenerife,1909,Spain,28.271,-16.641,3715
Tengchong,-5750,China,25.23,98.5,2865
Tengger Caldera,2019,Indonesia,-7.942,112.95,2329
Tenorio,Unknown,Costa Rica,10.673,-85.015,1916
Tepi,Unknown,Ethiopia,7.42,35.43,2728
Terceira,2000,Portugal,38.73,-27.32,1023
Theistareykir,-900,Iceland,65.833,-17.166,540
Three Sisters,440,United States,44.133,-121.767,3159
Tidore,Unknown,Indonesia,0.658,127.4,1730
"Tigre, El",Unknown,El Salvador,13.47,-88.43,1640
"Tigre, Isla el",Unknown,Honduras,13.272,-87.641,783
Tilocalar,Unknown,Chile,-23.97,-68.13,3109
Tinakula,2020,Solomon Islands,-10.386,165.804,796
Tindfjallajokull,Unknown,Iceland,63.783,-19.716,1464
Tinguiririca,1917,Chile,-34.814,-70.352,4280
Titila,-550,Russia,57.406,160.108,1523
Tjornes Fracture Zone,1868,Iceland,66.309,-17.118,-75
Tlevak Strait-Suemez Is.,Unknown,United States,55.25,-133.3,50
Toba,Unknown,Indonesia,2.58,98.83,2157
Todoko-Ranu,Unknown,Indonesia,1.25,127.47,979
Todra Volcanic Field,Unknown,Niger,17.68,8.5,1780
Tofua,2014,Tonga,-19.75,-175.07,515
"Toh, Tarso",Unknown,Chad,21.33,16.33,2000
Tokachidake,2004,Japan,43.418,142.686,2077
Tolbachik,2013,Russia,55.832,160.326,3611
Tolhuaca,-4000,Chile,-38.31,-71.645,2739
"Tolima, Nevado del",1943,Colombia,4.658,-75.33,5215
Toliman,Unknown,Guatemala,14.612,-91.189,3158
"Toluca, Nevado de",-1350,Mexico,19.108,-99.758,4680
Tomariyama [Golovnin],1848,Japan - administered by Russia,43.844,145.504,535
Tombel Graben,Unknown,Cameroon,4.758,9.717,500
Tondano Caldera,Unknown,Indonesia,1.23,124.83,1202
Toney Mountain,Unknown,Antarctica,-75.8,-115.83,3595
Tongariro,2012,New Zealand,-39.157,175.632,1978
Torfajokull,1477,Iceland,63.892,-19.122,1280
Toshima,-4550,Japan,34.52,139.279,508
"Tousside, Tarso",Unknown,Chad,21.03,16.45,3265
Towada,915,Japan,40.51,140.88,1011
Toya,2001,Japan,42.544,140.839,733
Traitor's Head,1881,Vanuatu,-18.754,169.238,817
Tralihue,Unknown,Argentina,-38.509,-70.898,2448
Trident,1974,United States,58.236,-155.1,1864
Tristan da Cunha,1962,United Kingdom,-37.092,-12.28,2060
"Trois Pitons, Morne",920,Dominica,15.37,-61.33,1387
Trolon,Unknown,Argentina,-37.738,-70.906,2360
Tromen,1822,Argentina,-37.144,-70.033,4114
Tronador,Unknown,Chile-Argentina,-41.157,-71.885,3478
Tullu Moje,1900,Ethiopia,8.159,39.137,2343
Tungnafellsjokull,Unknown,Iceland,64.75,-17.916,1523
Tunkin Depression,Unknown,Russia,51.5,102.5,1200
Tupungatito,1987,Chile-Argentina,-33.425,-69.797,5660
Turrialba,2019,Costa Rica,10.025,-83.767,3340
Tutuila,440,United States,-14.295,-170.7,653
Tutupaca,1802,Peru,-17.026,-70.372,5801
Tuya Volcanic Field,Unknown,Canada,59.37,-130.58,2123
Tuzgle,Unknown,Argentina,-24.05,-66.48,5486
Tuzovsky,Unknown,Russia,57.32,159.967,1516
Ubehebe Craters,-150,United States,37.02,-117.45,752
Udina,Unknown,Russia,55.758,160.527,2886
Udokan Plateau,-220,Russia,56.28,117.77,2180
Ugashik-Peulik,1814,United States,57.751,-156.368,1474
Uinkaret Field,1100,United States,36.38,-113.13,1555
Ukinrek Maars,1977,United States,57.832,-156.51,91
Uksichan,Unknown,Russia,56.08,158.38,1692
Ulreung,-2990,South Korea,37.5,130.87,984
Umboi,Unknown,Papua New Guinea,-5.589,147.875,1548
Ungaran,Unknown,Indonesia,-7.18,110.33,2050
Unzendake,1996,Japan,32.761,130.299,1483
Upolu,Unknown,Samoa,-13.935,-171.72,1100
Uratman,Unknown,Russia,47.12,152.25,678
Ushkovsky,1890,Russia,56.113,160.509,3943
Usulutan,Unknown,El Salvador,13.419,-88.471,1449
Utila Island,Unknown,Honduras,16.12,-86.882,74
"Uwayrid, Harrat",640,Saudi Arabia,27.08,37.25,1920
Uzon,200,Russia,54.5,159.97,1617
Vailulu'u,2003,United States,-14.215,-169.058,-592
Vaiyots-Sar,-2000,Armenia,39.797,45.497,2575
Vakinankaratra,Unknown,Madagascar,-19.85,46.942,2644
"Valle, El",Unknown,Panama,8.58,-80.17,1185
Vernadskii Ridge,Unknown,Russia,50.55,155.97,1183
Vestmannaeyjar,1973,Iceland,63.416,-20.266,283
Vesuvius,1944,Italy,40.821,14.426,1281
Victory,1935,Papua New Guinea,-9.2,149.07,1925
Villarrica,2020,Chile,-39.42,-71.93,2847
Vilyuchik,-8050,Russia,52.7,158.28,2173
Visoke,1957,DR Congo-Rwanda,-1.458,29.485,3696
Visokiy,Unknown,Russia,52.43,157.93,1234
Vitim Volcanic Field,Unknown,Russia,53.75,113.25,1250
"Voon, Tarso",Unknown,Chad,20.92,17.28,3100
Voyampolsky,Unknown,Russia,58.374,160.631,1103
Vulcano,1890,Italy,38.404,14.962,500
Vulsini,-104,Italy,42.6,11.93,800
Vysoky,-550,Russia,55.064,160.765,2129
Waesche,Unknown,Antarctica,-77.17,-126.88,3292
Wallis Islands,Unknown,France,-13.3,-176.17,143
Wapi Lava Field,-300,United States,42.88,-113.22,1604
Washiba-Kumonotaira,Unknown,Japan,36.408,137.594,2924
"Watt, Morne",1997,Dominica,15.307,-61.305,1224
Wells Gray-Clearwater,1550,Canada,52.33,-120.57,2576
West Crater,-5750,United States,45.88,-122.08,1329
West Eifel Volcanic Field,-8300,Germany,50.17,6.85,600
West Mata,2009,Tonga,-15.1,-173.75,-1174
Westdahl,1992,United States,54.516,-164.65,1563
Whakaari/White Island,2019,New Zealand,-37.52,177.18,294
Whangarei,Unknown,New Zealand,-35.75,174.27,397
Wilis,Unknown,Indonesia,-7.808,111.758,2563
Witori,2012,Papua New Guinea,-5.576,150.516,724
Wrangell,1912,United States,62.006,-144.017,4278
Wudalianchi,1776,China,48.72,126.12,597
Yakedake,1995,Japan,36.227,137.587,2455
"Yar, Jabal",1810,Saudi Arabia,17.05,42.83,305
Yasur,2020,Vanuatu,-19.532,169.447,361
Yavinsky,-4050,Russia,51.533,156.629,646
Yellowstone,-1350,United States,44.43,-110.67,2805
"Yojoa, Lake",Unknown,Honduras,14.98,-87.98,1090
Yokoate-jima,1835,Japan,28.797,128.997,495
Yokodake,1200,Japan,36.087,138.32,2480
Yonemaru-Sumiyoshiike,-6200,Japan,31.771,130.592,40
Yoteizan,-1050,Japan,42.827,140.812,1888
Yucamane,-1320,Peru,-17.184,-70.196,5495
Yufu-Tsurumi,867,Japan,33.282,131.39,1584
Yunaska,1937,United States,52.643,-170.629,550
"Zacate Grande, Isla",Unknown,Honduras,13.33,-87.63,640
Zaozan [Zaosan],1940,Japan,38.144,140.44,1841
Zaozerny,Unknown,Russia,56.88,159.95,1349
Zapatera,Unknown,Nicaragua,11.73,-85.82,629
Zavaritsky,-800,Russia,53.905,158.385,1567
Zavodovski,2016,United Kingdom,-56.3,-27.57,551
Zimina,Unknown,Russia,55.862,160.603,3057
Zitacuaro-Valle de Bravo,-3050,Mexico,19.4,-100.25,3500
Zubair Group,2013,Yemen,15.05,42.18,191
Zukur,Unknown,Yemen,14.02,42.75,624
Zuni-Bandera,-1170,United States,34.8,-108,2550
